{"location":{"Latitude":"51.539","Longitude":"-0.142","Area":"nw1 0ne"},"properties":[{"Latitude":"51.53762","Longitude":"-0.14309","Street":"ARLINGTON ROAD","display":{"Name":"Arlington Road Car Club","Size":"2","OpeningHours":"At All Times","Tariff":"","Duration":"no maximum","Type":"Car Club"}},{"Latitude":"51.54063","Longitude":"-0.13924","Street":"LYME STREET","display":{"Name":"Lyme Street Car Club","Size":"1","OpeningHours":"At All Times","Tariff":"-","Duration":"no maximum","Type":"Car club"}},{"Latitude":"51.53927","Longitude":"-0.14689","Street":"GLOUCESTER CRESCENT","display":{"Name":"Gloucester Crescent Car Club","Size":"2","OpeningHours":"Mon-Fri 08:30-18:30, Sat 09:30-17:30 and Sun 09:30-17:30","Tariff":"","Duration":"no maximum","Type":"Car Club"}},{"Latitude":"51.53546","Longitude":"-0.14268","Street":"MORNINGTON TERRACE","display":{"Name":"Mornington Terrace Car Club","Size":"2","OpeningHours":"At any time","Tariff":"none","Duration":"no maximum","Type":"Car Club"}},{"Latitude":"51.53756","Longitude":"-0.14792","Street":"GLOUCESTER AVENUE","display":{"Name":"Gloucester Avenue Car Club","Size":"2","OpeningHours":"At All Times","Tariff":"","Duration":"no maximum","Type":"Car Club"}},{"Latitude":"51.5424","Longitude":"-0.1446","Street":"CASTLEHAVEN ROAD","display":{"Name":"Castlehaven Road Car Club","Size":"1","OpeningHours":"At All Times","Tariff":"","Duration":"","Type":"Car club"}}]}