{"location":{"Area":"nw1 0ne","Latitude":"51.539","Longitude":"-0.142"},"properties":[{"Longitude":"-0.14189","Latitude":"51.54296","LAref":"LA00316296","externalref":"N100- and NEMTRE and RCLDIS7274","display":{"Organisation":"VIRGIN MEDIA","Name":"KENTISH TOWN ROAD -  and NEMTRE and RCLDIS7274","StartDate":"11 Mar 2015","EndDate":"12 Mar 2015","Telephone":"0800 953 2244","Street":"KENTISH TOWN ROAD","Description":"Repair Patch- remedial reinstatement in the footway"}},{"Longitude":"-0.14239","Latitude":"51.53693","LAref":"LA00320614","externalref":"BC005-WP00100500174314200","display":{"Organisation":"BT","Name":"ARLINGTON ROAD - WP00100500174314200","StartDate":"10 Mar 2015","EndDate":"12 Mar 2015","Telephone":"020 7974 2442","Street":"ARLINGTON ROAD","Description":"Build 1 precast chamber in 915mm x 445mm x 965mm deep in FootwayDemolish 1 existing jointbox(s) or cabinet base(s)Install 4m of 1 way poly duct in Footway"}},{"Longitude":"-0.1463","Latitude":"51.53678","LAref":"LA00321136","externalref":"FMC59-CAM2333","display":{"Organisation":"CAMDEN BOROUGH COUNCIL","Name":"DELANCEY STREET - CAM2333","StartDate":"10 Mar 2015","EndDate":"12 Mar 2015","Telephone":"020 7278 4444","Street":"DELANCEY STREET","Description":"CYCLIC INSPECTION F and W"}},{"Longitude":"-0.14259","Latitude":"51.53892","LAref":"LA00321134","externalref":"FMC59-CAM2332","display":{"Organisation":"CAMDEN BOROUGH COUNCIL","Name":"PARKWAY - CAM2332","StartDate":"10 Mar 2015","EndDate":"12 Mar 2015","Telephone":"020 7278 4444","Street":"PARKWAY","Description":"CYCLIC INSPECTION F and W"}},{"Longitude":"-0.14671","Latitude":"51.53632","LAref":"LA00321263","externalref":"YG504-279923","display":{"Organisation":"TRANSPORT FOR LONDON","Name":"PARKWAY - 279923","StartDate":"11 Mar 2015","EndDate":"12 Mar 2015","Telephone":"020 7222 5600","Street":"PARKWAY","Description":"Repair damaged traffic signal detection by slotcutting SD1.2 loop"}},{"Longitude":"-0.13804","Latitude":"51.54229","LAref":"LA00319050","externalref":"N100- and NEMTRE and RCLDIS6298","display":{"Organisation":"VIRGIN MEDIA","Name":"CAMDEN ROAD -  and NEMTRE and RCLDIS6298","StartDate":"12 Mar 2015","EndDate":"12 Mar 2015","Telephone":"0800 953 2244","Street":"CAMDEN ROAD","Description":"BLOCKED CARRIAGEWAY DUCT SLIP NO - C14-0564"}},{"Longitude":"-0.13949","Latitude":"51.53456","LAref":"LA00321218","externalref":"YG426-279778","display":{"Organisation":"TRANSPORT FOR LONDON","Name":"HAMPSTEAD ROAD - 279778","StartDate":"10 Mar 2015","EndDate":"12 Mar 2015","Telephone":"020 7222 5600","Street":"HAMPSTEAD ROAD","Description":"Scheme - Trial holes F and way only"}},{"Longitude":"-0.14321","Latitude":"51.54021","LAref":"LA00321248","externalref":"HEN-G-LIVE-00143105","display":{"Organisation":"CAMDEN BOROUGH COUNCIL","Name":"BUCK STREET - 00143105","StartDate":"11 Mar 2015","EndDate":"13 Mar 2015","Telephone":"020 7278 4444","Street":"BUCK STREET","Description":"VOLKERHIGHWAYS WORKING ON BEHALF OF CAMDEN COUNCIL HIGHWAYS ENGINEERING OPPOSITE 3 REACTIVE WORKS"}},{"Longitude":"-0.14338","Latitude":"51.54097","LAref":"LA00321249","externalref":"HEN-G-LIVE-00143106","display":{"Organisation":"CAMDEN BOROUGH COUNCIL","Name":"HAWLEY CRESCENT - 00143106","StartDate":"11 Mar 2015","EndDate":"13 Mar 2015","Telephone":"020 7278 4444","Street":"HAWLEY CRESCENT","Description":"VOLKERHIGHWAYS WORKING ON BEHALF OF CAMDEN COUNCIL HIGHWAYS ENGINEERING OPPOSITE 17JUNCTION OF KENTISH TOWN ROAD REACTIVE WORKS"}},{"Longitude":"-0.14419","Latitude":"51.53845","LAref":"LA00319535","externalref":"N100- and NEMTRE and DIS6566MA1","display":{"Organisation":"VIRGIN MEDIA","Name":"PARKWAY -  and NEMTRE and DIS6566MA1","StartDate":"11 Mar 2015","EndDate":"13 Mar 2015","Telephone":"0800 953 2244","Street":"PARKWAY","Description":"INTERM TO PERM FOOTWAY AND CARIAGEWAY"}},{"Longitude":"-0.13945","Latitude":"51.53541","LAref":"LA00321356","externalref":"YG425-280262","display":{"Organisation":"TRANSPORT FOR LONDON","Name":"CAMDEN HIGH STREET - 280262","StartDate":"13 Mar 2015","EndDate":"13 Mar 2015","Telephone":"020 7222 5600","Street":"CAMDEN HIGH STREET","Description":"MAINTENANCE - relay rocking slab part lane 1 part fw"}},{"Longitude":"-0.14089","Latitude":"51.54","LAref":"LA00320357","externalref":"YG425-277832","display":{"Organisation":"TRANSPORT FOR LONDON","Name":"CAMDEN ROAD - 277832","StartDate":"13 Mar 2015","EndDate":"13 Mar 2015","Telephone":"020 7222 5600","Street":"CAMDEN ROAD","Description":"MAINTENANCE - 3 rocking slabs part fw part lane 1"}},{"Longitude":"-0.13857","Latitude":"51.54174","LAref":"LA00320934","externalref":"YG425-279116","display":{"Organisation":"TRANSPORT FOR LONDON","Name":"CAMDEN ROAD - 279116","StartDate":"12 Mar 2015","EndDate":"13 Mar 2015","Telephone":"020 7222 5600","Street":"CAMDEN ROAD","Description":"Maintenance - Pothole Lane 1"}}]}